[{"lat": 34.6969705, "dept": "West Lafayette Police Dept", "address": "500 Block N GRANT ST", "date": "11/01/2015 11:11 PM", "lng": -85.2758891, "type": "Breaking & Entering", "id": "2015004223"}, {"lat": 40.437083, "dept": "Lafayette Police Department", "address": "2000 Block N 16TH ST", "date": "11/01/2015 10:01 AM", "lng": -86.880528, "type": "Assault", "id": "2015016718"}, {"lat": 40.3944821, "dept": "Lafayette Police Department", "address": "2600 Block HASTINGS CT", "date": "11/01/2015 04:00 AM", "lng": -86.84615900000001, "type": "Assault", "id": "2015016709"}, {"lat": 40.427673, "dept": "Lafayette Police Department", "address": "1000 Block N 8TH ST & HARTFORD ST", "date": "11/01/2015 03:50 AM", "lng": -86.88830709999999, "type": "Robbery", "id": "2015016708"}, {"lat": 40.418368, "dept": "Lafayette Police Department", "address": "4200 Block SOUTH ST", "date": "11/01/2015 12:30 AM", "lng": -86.8263496, "type": "Assault", "id": "2015016721"}, {"lat": 40.438351, "dept": "Lafayette Police Department", "address": "1500 Block SCHUYLER AVE", "date": "11/01/2015 12:28 AM", "lng": -86.88164400000001, "type": "Theft", "id": "2015016697"}, {"lat": 40.4050991, "dept": "Lafayette Police Department", "address": "1200 Block S 4TH ST", "date": "10/31/2015 11:13 PM", "lng": -86.89299, "type": "Assault", "id": "2015016694"}, {"lat": 40.4519435, "dept": "West Lafayette Police Dept", "address": "2800 Block NORTHWESTERN AVE", "date": "10/31/2015 08:00 PM", "lng": -86.9262878, "type": "Theft", "id": "2015004195"}, {"lat": 40.429994, "dept": "Lafayette Police Department", "address": "1000 Block ROBERTS ST", "date": "10/31/2015 04:04 PM", "lng": -86.885733, "type": "Theft", "id": "2015016687"}, {"lat": 40.4029423, "dept": "Lafayette Police Department", "address": "3400 Block MCCARTY LN", "date": "10/31/2015 03:30 PM", "lng": -86.84544939999999, "type": "Theft of Vehicle", "id": "2015016760"}, {"lat": 40.393195, "dept": "Lafayette Police Department", "address": "2400 Block S 18TH ST", "date": "10/31/2015 11:21 AM", "lng": -86.876755, "type": "Theft", "id": "2015016664"}, {"lat": 40.4173558, "dept": "Lafayette Police Department", "address": "1400 Block SOUTH ST", "date": "10/31/2015 04:20 AM", "lng": -86.8811327, "type": "Assault", "id": "2015016656"}, {"lat": 45.2450119, "dept": "Lafayette Police Department", "address": "800 Block N 6TH ST", "date": "10/31/2015 04:10 AM", "lng": -123.1088844, "type": "Breaking & Entering", "id": "2015016659"}, {"lat": 40.432254, "dept": "Lafayette Police Department", "address": "1500 Block GREENBUSH ST", "date": "10/31/2015 01:30 AM", "lng": -86.881216, "type": "Breaking & Entering", "id": "2015016674"}, {"lat": 40.4271188, "dept": "Lafayette Police Department", "address": "900 Block HAVERFORD DR", "date": "10/31/2015 12:30 AM", "lng": -86.8496329, "type": "Assault", "id": "2015016732"}, {"lat": 40.4172706, "dept": "Lafayette Police Department", "address": "1 Block S 4TH ST", "date": "10/30/2015 11:55 PM", "lng": -86.8930293, "type": "Theft", "id": "2015016807"}, {"lat": 40.4191393, "dept": "Lafayette Police Department", "address": "1100 Block MAIN ST", "date": "10/30/2015 09:15 PM", "lng": -86.8849224, "type": "Theft", "id": "2015016821"}, {"lat": 40.4387177, "dept": "Lafayette Police Department", "address": "2200 Block N 23RD ST", "date": "10/30/2015 08:11 PM", "lng": -86.87083, "type": "Theft", "id": "2015016638"}, {"lat": 40.4200309, "dept": "Lafayette Police Department", "address": "1000 Block FERRY ST", "date": "10/30/2015 07:20 PM", "lng": -86.88587249999999, "type": "Assault", "id": "2015016636"}, {"lat": 40.42666639999999, "dept": "West Lafayette Police Dept", "address": "200 Block WIGGINS ST", "date": "10/30/2015 05:30 PM", "lng": -86.9069371, "type": "Theft", "id": "2015004192"}, {"lat": 40.423644, "dept": "Lafayette Police Department", "address": "1300 Block ELIZABETH ST", "date": "10/30/2015 05:05 PM", "lng": -86.88313850000002, "type": "Assault", "id": "2015016627"}, {"lat": 40.4140666, "dept": "Lafayette Police Department", "address": "100 Block WALNUT ST", "date": "10/30/2015 03:35 PM", "lng": -86.89712089999999, "type": "Theft", "id": "2015016621"}, {"lat": 40.429794, "dept": "Lafayette Police Department", "address": "1700 Block WILSON ST", "date": "10/30/2015 03:32 PM", "lng": -86.87877399999999, "type": "Theft", "id": "2015016635"}, {"lat": 40.403056, "dept": "South Bend Police Department", "address": "1100 Block N HILL ST", "date": "10/30/2015 03:00 PM", "lng": -86.9037675, "type": "Theft", "id": "15-00019495"}, {"lat": 40.421134, "dept": "Lafayette Police Department", "address": "400 Block N 9TH ST", "date": "10/30/2015 01:00 PM", "lng": -86.887118, "type": "Breaking & Entering", "id": "2015016645"}, {"lat": 40.42181069999999, "dept": "West Lafayette Police Dept", "address": "300 Block BROWN ST", "date": "10/30/2015 12:01 PM", "lng": -86.8942879, "type": "Theft from Vehicle", "id": "2015004170"}, {"lat": 45.252344, "dept": "Lafayette Police Department", "address": "1300 Block N 16TH ST", "date": "10/30/2015 09:20 AM", "lng": -123.1073928, "type": "Assault", "id": "2015016611"}, {"lat": 40.433646, "dept": "Lafayette Police Department", "address": "2200 Block GREENBUSH ST", "date": "10/30/2015 03:03 AM", "lng": -86.8702812, "type": "Theft", "id": "2015016605"}, {"lat": 40.433646, "dept": "Lafayette Police Department", "address": "2200 Block GREENBUSH ST", "date": "10/29/2015 10:07 PM", "lng": -86.8702812, "type": "Theft", "id": "2015016864"}, {"lat": 40.3932056, "dept": "Lafayette Police Department", "address": "1700 Block S CREASY LN", "date": "10/29/2015 10:00 PM", "lng": -86.8384042, "type": "Theft from Vehicle", "id": "2015016607"}, {"lat": 40.4674912, "dept": "West Lafayette Police Dept", "address": "2600 Block US HWY 52 W", "date": "10/29/2015 09:17 PM", "lng": -86.95723559999999, "type": "Theft", "id": "2015004165"}, {"lat": 40.40082410000001, "dept": "Lafayette Police Department", "address": "1200 Block BURBERRY DR W", "date": "10/29/2015 09:14 PM", "lng": -86.8371544, "type": "Theft from Vehicle", "id": "2015016598"}, {"lat": 40.4191199, "dept": "Lafayette Police Department", "address": "1200 Block MAIN ST", "date": "10/29/2015 08:20 PM", "lng": -86.8838999, "type": "Assault", "id": "2015016586"}, {"lat": 40.4378003, "dept": "Lafayette Police Department", "address": "2100 Block ULEN LN", "date": "10/29/2015 07:33 PM", "lng": -86.8663523, "type": "Theft", "id": "2015016582"}, {"lat": 40.3959507, "dept": "Lafayette Police Department", "address": "2500 Block RICHMOND CT", "date": "10/29/2015 07:07 PM", "lng": -86.841579, "type": "Theft", "id": "2015016580"}, {"lat": 40.42003769999999, "dept": "Lafayette Police Department", "address": "1100 Block FERRY ST", "date": "10/29/2015 06:50 PM", "lng": -86.8849235, "type": "Assault", "id": "2015016581"}, {"lat": 40.42365770000001, "dept": "Lafayette Police Department", "address": "1400 Block ELIZABETH ST", "date": "10/29/2015 04:15 PM", "lng": -86.8822076, "type": "Theft", "id": "2015016583"}, {"lat": 40.422759, "dept": "West Lafayette Police Dept", "address": "100 Block S CHAUNCEY AVE", "date": "10/29/2015 02:24 PM", "lng": -86.906645, "type": "Theft", "id": "2015004158"}, {"lat": 40.4153096, "dept": "Lafayette Police Department", "address": "4200 Block COMMERCE DR", "date": "10/29/2015 12:30 PM", "lng": -86.8272745, "type": "Theft", "id": "2015016572"}, {"lat": 40.408555, "dept": "Lafayette Police Department", "address": "800 Block S 30TH ST", "date": "10/29/2015 09:49 AM", "lng": -86.863017, "type": "Theft", "id": "2015016561"}, {"lat": 40.4311728, "dept": "Lafayette Police Department", "address": "1200 Block MORTON ST", "date": "10/29/2015 04:56 AM", "lng": -86.8842923, "type": "Assault", "id": "2015016554"}, {"lat": 40.418368, "dept": "Lafayette Police Department", "address": "4200 Block SOUTH ST", "date": "10/29/2015 02:57 AM", "lng": -86.8263496, "type": "Robbery", "id": "2015016553"}, {"lat": 40.432346, "dept": "Lafayette Police Department", "address": "1800 Block GREENBUSH ST", "date": "10/29/2015 02:18 AM", "lng": -86.877338, "type": "Vehicle Recovery", "id": "454915"}, {"lat": 40.4278168, "dept": "West Lafayette Police Dept", "address": "400 Block LITTLETON ST", "date": "10/29/2015 12:22 AM", "lng": -86.90309380000001, "type": "Theft from Vehicle", "id": "2015004152"}, {"lat": 40.43440330000001, "dept": "Lafayette Police Department", "address": "1700 Block N 9TH ST", "date": "10/28/2015 11:59 PM", "lng": -86.88692600000002, "type": "Theft", "id": "2015016676"}, {"lat": 30.2184924, "dept": "Lafayette Police Department", "address": "4900 Block STATE RD 26 E", "date": "10/28/2015 04:43 PM", "lng": -92.0355534, "type": "Theft", "id": "2015016538"}, {"lat": 40.4153096, "dept": "Lafayette Police Department", "address": "4200 Block COMMERCE DR", "date": "10/28/2015 04:40 PM", "lng": -86.8272745, "type": "Theft", "id": "2015016534"}, {"lat": 40.432346, "dept": "Lafayette Police Department", "address": "1800 Block GREENBUSH ST", "date": "10/28/2015 03:33 PM", "lng": -86.877338, "type": "Theft of Vehicle", "id": "2015016528"}, {"lat": 40.4153096, "dept": "Lafayette Police Department", "address": "4200 Block COMMERCE DR", "date": "10/28/2015 03:26 PM", "lng": -86.8272745, "type": "Theft", "id": "2015016526"}, {"lat": 40.4175335, "dept": "Lafayette Police Department", "address": "1 Block N EARL AVE", "date": "10/28/2015 03:19 PM", "lng": -86.860754, "type": "Theft", "id": "2015016525"}, {"lat": 40.4257423, "dept": "West Lafayette Police Dept", "address": "300 Block S CHAUNCEY AVE", "date": "10/28/2015 02:08 PM", "lng": -86.9069106, "type": "Theft", "id": "2015004145"}, {"lat": 40.40911699999999, "dept": "Lafayette Police Department", "address": "800 Block S 19TH ST", "date": "10/28/2015 06:55 AM", "lng": -86.87602299999999, "type": "Assault", "id": "2015016488"}, {"lat": 40.4074438, "dept": "Lafayette Police Department", "address": "2600 Block MAIN ST", "date": "10/27/2015 10:34 PM", "lng": -86.86704660000001, "type": "Theft", "id": "2015016505"}, {"lat": 40.39342509999999, "dept": "Lafayette Police Department", "address": "1800 Block SHOSHONE DR", "date": "10/27/2015 05:10 PM", "lng": -86.8763843, "type": "Theft of Vehicle", "id": "2015016494"}, {"lat": 40.4168841, "dept": "Lafayette Police Department", "address": "100 Block S CREASY LN", "date": "10/27/2015 12:50 PM", "lng": -86.8426808, "type": "Theft", "id": "2015016445"}, {"lat": 40.411097, "dept": "Lafayette Police Department", "address": "600 Block S 19TH ST", "date": "10/27/2015 12:25 PM", "lng": -86.87570199999999, "type": "Assault", "id": "2015016441"}, {"lat": 40.4174086, "dept": "Lafayette Police Department", "address": "1 Block N 21ST ST", "date": "10/27/2015 02:25 AM", "lng": -86.87347659999999, "type": "Assault", "id": "2015016426"}, {"lat": 40.4100613, "dept": "Lafayette Police Department", "address": "700 Block S 20TH ST", "date": "10/27/2015 02:00 AM", "lng": -86.87453579999999, "type": "Theft of Vehicle", "id": "2015016434"}, {"lat": 40.433646, "dept": "Lafayette Police Department", "address": "2200 Block GREENBUSH ST", "date": "10/26/2015 10:43 PM", "lng": -86.8702812, "type": "Theft", "id": "2015016423"}, {"lat": 40.4153096, "dept": "Lafayette Police Department", "address": "4200 Block COMMERCE DR", "date": "10/26/2015 05:34 PM", "lng": -86.8272745, "type": "Theft", "id": "2015016438"}, {"lat": 34.6970775, "dept": "West Lafayette Police Dept", "address": "400 Block S GRANT ST", "date": "10/26/2015 10:55 AM", "lng": -85.2757701, "type": "Theft from Vehicle", "id": "2015004105"}, {"lat": 40.4327194, "dept": "Lafayette Police Department", "address": "3700 Block TULAROSA DR", "date": "10/26/2015 09:20 AM", "lng": -86.8449076, "type": "Assault", "id": "2015016370"}, {"lat": 40.401486, "dept": "Lafayette Police Department", "address": "2400 Block STATE ST", "date": "10/26/2015 08:30 AM", "lng": -86.869051, "type": "Assault", "id": "2015016366"}, {"lat": 40.4323369, "dept": "Lafayette Police Department", "address": "1700 Block GREENBUSH ST", "date": "10/26/2015 02:10 AM", "lng": -86.878841, "type": "Theft", "id": "2015016360"}, {"lat": 40.4209131, "dept": "Lafayette Police Department", "address": "300 Block N 11TH ST & NORTH ST", "date": "10/25/2015 10:19 PM", "lng": -86.8849661, "type": "Assault", "id": "2015016356"}, {"lat": 40.43345679999999, "dept": "Lafayette Police Department", "address": "2400 Block GREENBUSH ST", "date": "10/25/2015 09:00 PM", "lng": -86.86950139999999, "type": "Theft from Vehicle", "id": "2015016398"}, {"lat": 40.43836659999999, "dept": "Lafayette Police Department", "address": "2100 Block BANSTEAD CT", "date": "10/25/2015 08:21 PM", "lng": -86.87959479999999, "type": "Assault", "id": "2015016349"}, {"lat": 40.4519435, "dept": "West Lafayette Police Dept", "address": "2800 Block NORTHWESTERN AVE", "date": "10/25/2015 07:14 PM", "lng": -86.9262878, "type": "Theft", "id": "2015004101"}, {"lat": 40.39504280000001, "dept": "Lafayette Police Department", "address": "1 Block PROFESSIONAL CT", "date": "10/25/2015 06:25 PM", "lng": -86.84960799999999, "type": "Theft from Vehicle", "id": "2015016345"}, {"lat": 40.4478792, "dept": "Lafayette Police Department", "address": "1 Block COR DALE CT", "date": "10/25/2015 05:20 PM", "lng": -86.8840769, "type": "Theft", "id": "2015016340"}, {"lat": 40.4191199, "dept": "Lafayette Police Department", "address": "1200 Block MAIN ST", "date": "10/25/2015 05:00 PM", "lng": -86.8838999, "type": "Assault", "id": "2015016355"}, {"lat": 30.2184924, "dept": "Lafayette Police Department", "address": "4900 Block STATE RD 26 E", "date": "10/25/2015 03:36 PM", "lng": -92.0355534, "type": "Theft", "id": "2015016337"}, {"lat": 40.4153096, "dept": "Lafayette Police Department", "address": "4200 Block COMMERCE DR", "date": "10/25/2015 02:09 PM", "lng": -86.8272745, "type": "Theft", "id": "2015016517"}, {"lat": 40.4289619, "dept": "West Lafayette Police Dept", "address": "200 Block E LUTZ AVE", "date": "10/25/2015 12:28 PM", "lng": -86.9041944, "type": "Theft from Vehicle", "id": "2015004095"}, {"lat": 40.4289619, "dept": "West Lafayette Police Dept", "address": "200 Block E LUTZ AVE", "date": "10/25/2015 12:23 PM", "lng": -86.9041944, "type": "Theft", "id": "2015004094"}, {"lat": 40.4170817, "dept": "Lafayette Police Department", "address": "4700 Block MEIJER CT", "date": "10/25/2015 06:02 AM", "lng": -86.817762, "type": "Assault", "id": "2015016319"}, {"lat": 30.2184924, "dept": "West Lafayette Police Dept", "address": "100 Block W STATE ST", "date": "10/25/2015 02:21 AM", "lng": -92.0355534, "type": "Assault", "id": "2015004085"}, {"lat": 40.4173722, "dept": "Lafayette Police Department", "address": "1 Block GRANT ST", "date": "10/24/2015 11:30 PM", "lng": -86.87539, "type": "Theft from Vehicle", "id": "2015016321"}, {"lat": 40.4091264, "dept": "Lafayette Police Department", "address": "800 Block S 18TH ST", "date": "10/24/2015 10:00 PM", "lng": -86.8768845, "type": "Breaking & Entering", "id": "2015016320"}, {"lat": 40.43111030000001, "dept": "Lafayette Police Department", "address": "1400 Block SAGAMORE PKY N", "date": "10/24/2015 08:40 PM", "lng": -86.8581155, "type": "Theft", "id": "2015016308"}, {"lat": 40.4190192, "dept": "Lafayette Police Department", "address": "300 Block N 25TH ST", "date": "10/24/2015 03:00 PM", "lng": -86.8687664, "type": "Breaking & Entering", "id": "2015016296"}, {"lat": 40.4101089, "dept": "Lafayette Police Department", "address": "2400 Block KOSSUTH ST", "date": "10/24/2015 02:30 PM", "lng": -86.86988819999999, "type": "Theft from Vehicle", "id": "2015016335"}, {"lat": 40.4100838, "dept": "Lafayette Police Department", "address": "2000 Block KOSSUTH ST", "date": "10/24/2015 02:22 PM", "lng": -86.87336169999999, "type": "Breaking & Entering", "id": "2015016283"}, {"lat": 40.4153096, "dept": "Lafayette Police Department", "address": "4200 Block COMMERCE DR", "date": "10/24/2015 02:10 PM", "lng": -86.8272745, "type": "Theft", "id": "2015016286"}, {"lat": 40.4028641, "dept": "Lafayette Police Department", "address": "1300 Block S 2ND ST", "date": "10/24/2015 02:00 PM", "lng": -86.8957705, "type": "Theft", "id": "2015016511"}, {"lat": 40.761354, "dept": "West Lafayette Police Dept", "address": "100 Block W WOOD ST", "date": "10/24/2015 01:46 PM", "lng": -83.948892, "type": "Theft", "id": "2015004066"}, {"lat": 40.4257185, "dept": "Lafayette Police Department", "address": "900 Block N 11TH ST", "date": "10/24/2015 09:00 AM", "lng": -86.8845875, "type": "Theft", "id": "2015016302"}, {"lat": 40.418368, "dept": "Lafayette Police Department", "address": "4200 Block SOUTH ST", "date": "10/24/2015 06:30 AM", "lng": -86.8263496, "type": "Theft", "id": "2015016278"}, {"lat": 40.4170817, "dept": "Lafayette Police Department", "address": "4700 Block MEIJER CT", "date": "10/24/2015 03:00 AM", "lng": -86.817762, "type": "Theft from Vehicle", "id": "2015016570"}, {"lat": 40.4158502, "dept": "Lafayette Police Department", "address": "200 Block N 2ND ST", "date": "10/24/2015 02:44 AM", "lng": -86.8954879, "type": "Theft", "id": "2015016260"}, {"lat": 40.4189281, "dept": "Lafayette Police Department", "address": "100 Block FRONTAGE RD", "date": "10/24/2015 02:00 AM", "lng": -86.81826099999999, "type": "Theft", "id": "2015016272"}, {"lat": 40.761187, "dept": "West Lafayette Police Dept", "address": "200 Block W WOOD ST", "date": "10/24/2015 12:24 AM", "lng": -83.9503575, "type": "Breaking & Entering", "id": "2015004059"}, {"lat": 40.4202476, "dept": "Lafayette Police Department", "address": "900 Block FERRY ST", "date": "10/23/2015 08:37 PM", "lng": -86.88629069999999, "type": "Theft", "id": "2015016249"}, {"lat": 40.4153096, "dept": "Lafayette Police Department", "address": "4200 Block COMMERCE DR", "date": "10/23/2015 07:30 PM", "lng": -86.8272745, "type": "Theft", "id": "2015016243"}, {"lat": 40.4153096, "dept": "Lafayette Police Department", "address": "4200 Block COMMERCE DR", "date": "10/23/2015 05:40 PM", "lng": -86.8272745, "type": "Theft", "id": "2015016230"}, {"lat": 40.4111819, "dept": "Lafayette Police Department", "address": "600 Block S 20TH ST", "date": "10/23/2015 05:00 PM", "lng": -86.874128, "type": "Breaking & Entering", "id": "2015016457"}, {"lat": 40.408644, "dept": "Lafayette Police Department", "address": "800 Block S 28TH ST", "date": "10/23/2015 04:20 PM", "lng": -86.8649208, "type": "Assault", "id": "2015016225"}, {"lat": 45.2456839, "dept": "Lafayette Police Department", "address": "800 Block N 7TH ST", "date": "10/23/2015 12:00 PM", "lng": -123.1085796, "type": "Theft", "id": "2015016390"}, {"lat": 40.4175074, "dept": "Lafayette Police Department", "address": "1 Block N 30TH ST", "date": "10/23/2015 08:00 AM", "lng": -86.8630179, "type": "Theft", "id": "2015016367"}, {"lat": 40.41001170000001, "dept": "Lafayette Police Department", "address": "1000 Block KOSSUTH ST", "date": "10/23/2015 01:00 AM", "lng": -86.8853051, "type": "Assault", "id": "2015016197"}, {"lat": 40.4324458, "dept": "Lafayette Police Department", "address": "2700 Block GREENBUSH ST", "date": "10/23/2015 12:05 AM", "lng": -86.8652295, "type": "Theft of Vehicle", "id": "2015016194"}, {"lat": 40.4324458, "dept": "Lafayette Police Department", "address": "2700 Block GREENBUSH ST", "date": "10/23/2015 12:05 AM", "lng": -86.8652295, "type": "Vehicle Recovery", "id": "454478"}, {"lat": 40.4138411, "dept": "Lafayette Police Department", "address": "1700 Block SCOTT ST", "date": "10/22/2015 11:00 PM", "lng": -86.87468899999999, "type": "Theft", "id": "2015016305"}, {"lat": 40.4611639, "dept": "West Lafayette Police Dept", "address": "3000 Block HAMILTON ST", "date": "10/22/2015 08:36 PM", "lng": -86.903757, "type": "Theft", "id": "2015004038"}, {"lat": 40.4531536, "dept": "West Lafayette Police Dept", "address": "2500 Block SOLDIERS HOME RD", "date": "10/22/2015 06:17 PM", "lng": -86.90307829999999, "type": "Theft", "id": "2015004036"}, {"lat": 30.2204905, "dept": "Lafayette Police Department", "address": "600 Block S 16TH ST", "date": "10/22/2015 06:00 PM", "lng": -92.0057672, "type": "Theft", "id": "2015016413"}, {"lat": 40.4153096, "dept": "Lafayette Police Department", "address": "4200 Block COMMERCE DR", "date": "10/22/2015 03:25 PM", "lng": -86.8272745, "type": "Theft", "id": "2015016174"}, {"lat": 40.4078972, "dept": "Lafayette Police Department", "address": "2500 Block MAIN ST", "date": "10/22/2015 08:50 AM", "lng": -86.8676713, "type": "Breaking & Entering", "id": "2015016166"}, {"lat": 40.4182566, "dept": "Lafayette Police Department", "address": "1200 Block COLUMBIA ST", "date": "10/22/2015 08:34 AM", "lng": -86.88386589999999, "type": "Theft", "id": "2015016158"}, {"lat": 40.40911699999999, "dept": "Lafayette Police Department", "address": "800 Block S 19TH ST", "date": "10/22/2015 04:20 AM", "lng": -86.87602299999999, "type": "Robbery", "id": "2015016153"}, {"lat": 40.40359, "dept": "Lafayette Police Department", "address": "1400 Block N 18TH ST", "date": "10/22/2015 01:10 AM", "lng": -86.877026, "type": "Breaking & Entering", "id": "2015016150"}, {"lat": 45.25105850000001, "dept": "Lafayette Police Department", "address": "800 Block N 14TH ST", "date": "10/21/2015 11:45 PM", "lng": -123.1088775, "type": "Assault", "id": "2015016147"}, {"lat": 40.4295647, "dept": "Lafayette Police Department", "address": "1800 Block WILSON ST", "date": "10/21/2015 09:06 PM", "lng": -86.8774741, "type": "Assault", "id": "2015016140"}, {"lat": 30.2198358, "dept": "Lafayette Police Department", "address": "500 Block S 16TH ST", "date": "10/21/2015 09:00 PM", "lng": -92.0067538, "type": "Theft", "id": "2015016141"}, {"lat": 37.8908891, "dept": "Lafayette Police Department", "address": "900 Block S 2ND ST", "date": "10/21/2015 05:45 PM", "lng": -122.1135111, "type": "Assault", "id": "2015016131"}, {"lat": 40.4269089, "dept": "Lafayette Police Department", "address": "1900 Block ELMWOOD AVE", "date": "10/21/2015 03:10 PM", "lng": -86.8764963, "type": "Theft", "id": "2015016119"}, {"lat": 40.4153096, "dept": "Lafayette Police Department", "address": "4200 Block COMMERCE DR", "date": "10/21/2015 01:15 PM", "lng": -86.8272745, "type": "Theft", "id": "2015016111"}, {"lat": 40.3944821, "dept": "Lafayette Police Department", "address": "2600 Block HASTINGS CT", "date": "10/21/2015 10:58 AM", "lng": -86.84615900000001, "type": "Theft", "id": "2015016100"}, {"lat": 40.40716099999999, "dept": "Lafayette Police Department", "address": "1000 Block S 30TH ST", "date": "10/21/2015 07:30 AM", "lng": -86.862979, "type": "Theft", "id": "2015016105"}, {"lat": 34.697135, "dept": "West Lafayette Police Dept", "address": "300 Block N GRANT ST", "date": "10/21/2015 07:00 AM", "lng": -85.27568219999999, "type": "Breaking & Entering", "id": "2015004021"}, {"lat": 40.3945244, "dept": "Lafayette Police Department", "address": "2600 Block DENHAM CT", "date": "10/21/2015 12:00 AM", "lng": -86.8471033, "type": "Vehicle Recovery", "id": "378584"}, {"lat": 40.4153096, "dept": "Lafayette Police Department", "address": "4200 Block COMMERCE DR", "date": "10/20/2015 09:30 PM", "lng": -86.8272745, "type": "Theft", "id": "2015016084"}, {"lat": 40.4191393, "dept": "Lafayette Police Department", "address": "1100 Block MAIN ST", "date": "10/20/2015 09:23 PM", "lng": -86.8849224, "type": "Theft", "id": "2015016142"}, {"lat": 40.4053981, "dept": "Lafayette Police Department", "address": "3800 Block SICKLE CT", "date": "10/20/2015 04:15 PM", "lng": -86.8378016, "type": "Assault", "id": "2015016063"}, {"lat": 40.44005600000001, "dept": "Lafayette Police Department", "address": "2300 Block BERKSHAFF DR", "date": "10/20/2015 01:30 PM", "lng": -86.866862, "type": "Assault", "id": "2015016053"}, {"lat": 40.4046417, "dept": "Lafayette Police Department", "address": "1000 Block JULIA LN", "date": "10/20/2015 01:00 PM", "lng": -86.8357939, "type": "Theft", "id": "2015016054"}, {"lat": 40.4190131, "dept": "Lafayette Police Department", "address": "1700 Block FERRY ST", "date": "10/19/2015 09:25 PM", "lng": -86.8778829, "type": "Assault", "id": "2015016025"}, {"lat": 45.2444006, "dept": "Lafayette Police Department", "address": "500 Block N 4TH ST", "date": "10/19/2015 09:00 PM", "lng": -123.1128025, "type": "Theft", "id": "2015016036"}, {"lat": 40.4180895, "dept": "Lafayette Police Department", "address": "1 Block SAGAMORE PKY N", "date": "10/19/2015 08:00 PM", "lng": -86.8575352, "type": "Theft", "id": "2015016037"}, {"lat": 40.422981, "dept": "Lafayette Police Department", "address": "1200 Block CINCINNATI ST", "date": "10/19/2015 07:50 PM", "lng": -86.8838899, "type": "Theft", "id": "2015016020"}, {"lat": 40.4153096, "dept": "Lafayette Police Department", "address": "4200 Block COMMERCE DR", "date": "10/19/2015 05:40 PM", "lng": -86.8272745, "type": "Theft", "id": "2015016015"}, {"lat": 40.442898, "dept": "Lafayette Police Department", "address": "2000 Block MONON AVE", "date": "10/19/2015 07:48 AM", "lng": -86.874955, "type": "Vehicle Recovery", "id": "452689"}, {"lat": 40.442898, "dept": "Lafayette Police Department", "address": "2000 Block MONON AVE", "date": "10/19/2015 12:15 AM", "lng": -86.874955, "type": "Theft of Vehicle", "id": "2015015989"}, {"lat": 40.442094, "dept": "Lafayette Police Department", "address": "2000 Block SCHUYLER AVE", "date": "10/18/2015 10:00 PM", "lng": -86.874458, "type": "Theft from Vehicle", "id": "2015015987"}, {"lat": 40.761187, "dept": "West Lafayette Police Dept", "address": "200 Block W WOOD ST", "date": "10/18/2015 05:13 PM", "lng": -83.9503575, "type": "Theft", "id": "2015003984"}, {"lat": 40.4081623, "dept": "Lafayette Police Department", "address": "1100 Block ADAMS ST", "date": "10/18/2015 02:00 PM", "lng": -86.88403799999999, "type": "Assault", "id": "2015015961"}, {"lat": 40.433646, "dept": "Lafayette Police Department", "address": "2200 Block GREENBUSH ST", "date": "10/18/2015 02:03 AM", "lng": -86.8702812, "type": "Theft", "id": "2015015945"}, {"lat": 40.4153096, "dept": "Lafayette Police Department", "address": "4200 Block COMMERCE DR", "date": "10/17/2015 07:39 PM", "lng": -86.8272745, "type": "Theft", "id": "2015015933"}, {"lat": 40.4256216, "dept": "Lafayette Police Department", "address": "1700 Block SALEM ST", "date": "10/17/2015 05:40 PM", "lng": -86.8785791, "type": "Theft from Vehicle", "id": "2015015931"}, {"lat": 40.4174469, "dept": "Lafayette Police Department", "address": "600 Block SOUTH ST", "date": "10/17/2015 05:00 PM", "lng": -86.8905434, "type": "Theft of Vehicle", "id": "2015016076"}, {"lat": 40.433646, "dept": "Lafayette Police Department", "address": "2200 Block GREENBUSH ST", "date": "10/17/2015 03:00 PM", "lng": -86.8702812, "type": "Theft", "id": "2015015920"}, {"lat": 40.4191199, "dept": "Lafayette Police Department", "address": "1200 Block MAIN ST", "date": "10/17/2015 11:00 AM", "lng": -86.8838999, "type": "Theft", "id": "2015015969"}, {"lat": 40.4162024, "dept": "Lafayette Police Department", "address": "100 Block SAGAMORE PKY S", "date": "10/17/2015 10:30 AM", "lng": -86.8578902, "type": "Theft", "id": "2015015932"}, {"lat": 40.418368, "dept": "Lafayette Police Department", "address": "4200 Block SOUTH ST", "date": "10/17/2015 06:00 AM", "lng": -86.8263496, "type": "Theft", "id": "2015015918"}, {"lat": 40.4155014, "dept": "Lafayette Police Department", "address": "1400 Block GROVE ST", "date": "10/17/2015 01:00 AM", "lng": -86.88177569999999, "type": "Theft of Vehicle", "id": "2015015911"}, {"lat": 40.425809, "dept": "West Lafayette Police Dept", "address": "300 Block N SALISBURY ST", "date": "10/16/2015 10:05 PM", "lng": -86.905475, "type": "Theft of Vehicle", "id": "2015003963"}, {"lat": 40.401248, "dept": "Lafayette Police Department", "address": "1400 Block OAK CT", "date": "10/16/2015 09:36 PM", "lng": -86.881202, "type": "Theft", "id": "2015016021"}, {"lat": 45.2458168, "dept": "Lafayette Police Department", "address": "200 Block S 5TH ST", "date": "10/16/2015 07:50 PM", "lng": -123.1158577, "type": "Assault", "id": "2015015888"}, {"lat": 40.4160988, "dept": "Lafayette Police Department", "address": "1700 Block MAIN ST", "date": "10/16/2015 07:00 PM", "lng": -86.877192, "type": "Theft of Vehicle", "id": "2015015884"}, {"lat": 40.4186293, "dept": "Lafayette Police Department", "address": "200 Block TINKLER ST", "date": "10/16/2015 06:57 PM", "lng": -86.8809081, "type": "Theft from Vehicle", "id": "2015015894"}, {"lat": 40.404714, "dept": "Lafayette Police Department", "address": "2000 Block STATE ST", "date": "10/16/2015 05:46 PM", "lng": -86.87430549999999, "type": "Vehicle Recovery", "id": "421061"}, {"lat": 40.4220627, "dept": "Lafayette Police Department", "address": "500 Block S 9TH ST", "date": "10/16/2015 04:45 PM", "lng": -86.88697540000001, "type": "Robbery", "id": "2015015878"}, {"lat": 40.43440330000001, "dept": "Lafayette Police Department", "address": "1700 Block N 9TH ST", "date": "10/16/2015 04:32 PM", "lng": -86.88692600000002, "type": "Vehicle Recovery", "id": "450185"}, {"lat": 40.439694, "dept": "Lafayette Police Department", "address": "2300 Block N 20TH ST", "date": "10/16/2015 03:45 PM", "lng": -86.87476, "type": "Assault", "id": "2015015873"}, {"lat": 40.4153096, "dept": "Lafayette Police Department", "address": "4200 Block COMMERCE DR", "date": "10/16/2015 03:20 PM", "lng": -86.8272745, "type": "Theft", "id": "2015015870"}, {"lat": 40.4040827, "dept": "Lafayette Police Department", "address": "2900 Block S EARL AVE", "date": "10/16/2015 07:30 AM", "lng": -86.8649835, "type": "Theft", "id": "2015015898"}, {"lat": 40.419388, "dept": "Lafayette Police Department", "address": "1000 Block MAIN ST", "date": "10/15/2015 08:34 PM", "lng": -86.88568699999999, "type": "Assault", "id": "2015015837"}, {"lat": 40.4153096, "dept": "Lafayette Police Department", "address": "4200 Block COMMERCE DR", "date": "10/15/2015 08:09 PM", "lng": -86.8272745, "type": "Theft", "id": "2015015836"}, {"lat": 40.4127274, "dept": "Lafayette Police Department", "address": "300 Block FOUNTAIN ST", "date": "10/15/2015 05:50 PM", "lng": -86.8942004, "type": "Assault", "id": "2015015871"}, {"lat": 44.4446605, "dept": "Lafayette Police Department", "address": "300 Block S 6TH ST", "date": "10/15/2015 12:00 PM", "lng": -94.396773, "type": "Breaking & Entering", "id": "2015015998"}, {"lat": 40.433646, "dept": "Lafayette Police Department", "address": "2200 Block GREENBUSH ST", "date": "10/15/2015 01:48 AM", "lng": -86.8702812, "type": "Theft", "id": "2015015791"}, {"lat": 40.4018605, "dept": "Lafayette Police Department", "address": "2400 Block S EARL AVE", "date": "10/15/2015 12:30 AM", "lng": -86.86913109999999, "type": "Theft from Vehicle", "id": "2015015799"}, {"lat": 40.402418, "dept": "Lafayette Police Department", "address": "1500 Block SAGAMORE PKY S", "date": "10/14/2015 10:11 PM", "lng": -86.85802199999999, "type": "Theft", "id": "2015015781"}, {"lat": 40.4127269, "dept": "Lafayette Police Department", "address": "500 Block S 28TH ST", "date": "10/14/2015 08:30 PM", "lng": -86.865087, "type": "Theft from Vehicle", "id": "2015015794"}, {"lat": 40.4153096, "dept": "Lafayette Police Department", "address": "4200 Block COMMERCE DR", "date": "10/14/2015 08:29 PM", "lng": -86.8272745, "type": "Theft", "id": "2015015832"}, {"lat": 40.4153096, "dept": "Lafayette Police Department", "address": "4200 Block COMMERCE DR", "date": "10/14/2015 07:20 PM", "lng": -86.8272745, "type": "Theft", "id": "2015015771"}, {"lat": 40.4173409, "dept": "Lafayette Police Department", "address": "1 Block N 6TH ST", "date": "10/14/2015 06:04 PM", "lng": -86.89059519999999, "type": "Vehicle Recovery", "id": "452909"}, {"lat": 40.4332471, "dept": "Lafayette Police Department", "address": "900 Block N 10TH ST", "date": "10/14/2015 04:12 PM", "lng": -86.8859236, "type": "Breaking & Entering", "id": "2015015758"}, {"lat": 40.4078945, "dept": "Lafayette Police Department", "address": "3800 Block TIMOTHY TRL", "date": "10/14/2015 04:00 PM", "lng": -86.83801799999999, "type": "Theft", "id": "2015015765"}, {"lat": 40.43299349999999, "dept": "Lafayette Police Department", "address": "1800 Block MAPLE ST", "date": "10/14/2015 02:22 PM", "lng": -86.8775551, "type": "Breaking & Entering", "id": "2015015763"}, {"lat": 40.3944821, "dept": "Lafayette Police Department", "address": "2600 Block HASTINGS CT", "date": "10/14/2015 10:00 AM", "lng": -86.84615900000001, "type": "Theft", "id": "2015015743"}, {"lat": 40.4247086, "dept": "Lafayette Police Department", "address": "800 Block N 9TH ST", "date": "10/14/2015 03:00 AM", "lng": -86.8869405, "type": "Theft", "id": "2015015826"}, {"lat": 40.423644, "dept": "Lafayette Police Department", "address": "1300 Block ELIZABETH ST", "date": "10/14/2015 01:20 AM", "lng": -86.88313850000002, "type": "Assault", "id": "2015015727"}, {"lat": 30.2235627, "dept": "Lafayette Police Department", "address": "300 Block N 11TH ST", "date": "10/13/2015 11:45 PM", "lng": -92.0075469, "type": "Theft", "id": "2015015725"}, {"lat": 40.400739, "dept": "Lafayette Police Department", "address": "1200 Block BURBERRY CT", "date": "10/13/2015 09:00 PM", "lng": -86.83576169999999, "type": "Theft from Vehicle", "id": "2015015749"}, {"lat": 40.3954819, "dept": "Lafayette Police Department", "address": "2200 Block TEAL RD", "date": "10/13/2015 08:45 PM", "lng": -86.87100930000001, "type": "Theft", "id": "2015015825"}, {"lat": 30.2270319, "dept": "Lafayette Police Department", "address": "500 Block N 7TH ST", "date": "10/13/2015 07:50 PM", "lng": -92.0096217, "type": "Assault", "id": "2015015719"}, {"lat": 40.4084363, "dept": "Lafayette Police Department", "address": "900 Block S 23RD ST", "date": "10/13/2015 05:10 PM", "lng": -86.8708575, "type": "Assault", "id": "2015015709"}, {"lat": 40.4382747, "dept": "Lafayette Police Department", "address": "3600 Block PLATTE DR", "date": "10/13/2015 05:00 PM", "lng": -86.8481865, "type": "Theft from Vehicle", "id": "2015015734"}, {"lat": 40.4388379, "dept": "Lafayette Police Department", "address": "2200 Block N 22ND ST", "date": "10/13/2015 01:00 PM", "lng": -86.872382, "type": "Theft", "id": "2015015720"}, {"lat": 40.4033019, "dept": "Lafayette Police Department", "address": "1600 Block STANFORTH AVE", "date": "10/12/2015 11:45 PM", "lng": -86.879082, "type": "Assault", "id": "2015015666"}, {"lat": 40.3976958, "dept": "Lafayette Police Department", "address": "2000 Block SAGAMORE PKY S", "date": "10/12/2015 08:40 PM", "lng": -86.8569931, "type": "Theft from Vehicle", "id": "2015015680"}, {"lat": 40.4093187, "dept": "Lafayette Police Department", "address": "800 Block SHAWNEE AVE", "date": "10/12/2015 06:00 PM", "lng": -86.88993750000002, "type": "Theft from Vehicle", "id": "2015015761"}, {"lat": 40.3957168, "dept": "Lafayette Police Department", "address": "2200 Block SAGAMORE PKY S", "date": "10/12/2015 05:00 PM", "lng": -86.8562728, "type": "Assault", "id": "2015015645"}, {"lat": 40.4046015, "dept": "Lafayette Police Department", "address": "1300 Block S 20TH ST", "date": "10/12/2015 01:00 PM", "lng": -86.87434209999999, "type": "Breaking & Entering", "id": "2015015635"}, {"lat": 40.4175166, "dept": "Lafayette Police Department", "address": "1 Block S 31ST ST", "date": "10/12/2015 04:00 AM", "lng": -86.8619449, "type": "Breaking & Entering", "id": "2015015640"}, {"lat": 40.432398, "dept": "Lafayette Police Department", "address": "1300 Block GREENBUSH ST", "date": "10/12/2015 01:00 AM", "lng": -86.883174, "type": "Breaking & Entering", "id": "2015015632"}, {"lat": 45.2455522, "dept": "Lafayette Police Department", "address": "300 Block S 5TH ST", "date": "10/11/2015 11:18 PM", "lng": -123.1147448, "type": "Assault", "id": "2015015619"}, {"lat": 40.438958, "dept": "Lafayette Police Department", "address": "2200 Block N 19TH ST", "date": "10/11/2015 11:00 PM", "lng": -86.876246, "type": "Breaking & Entering", "id": "2015015630"}, {"lat": 40.4192877, "dept": "Lafayette Police Department", "address": "300 Block SAGAMORE PKY S", "date": "10/11/2015 04:30 PM", "lng": -86.8582031, "type": "Theft from Vehicle", "id": "2015015626"}, {"lat": 40.43484369999999, "dept": "Lafayette Police Department", "address": "1800 Block N 27TH ST", "date": "10/11/2015 01:18 PM", "lng": -86.86599900000002, "type": "Assault", "id": "2015015602"}, {"lat": 40.3975099, "dept": "Lafayette Police Department", "address": "2500 Block TEAL RD", "date": "10/11/2015 12:44 PM", "lng": -86.868248, "type": "Theft", "id": "2015015600"}, {"lat": 40.424029, "dept": "Lafayette Police Department", "address": "700 Block S 28TH ST", "date": "10/11/2015 12:23 AM", "lng": -86.865227, "type": "Assault", "id": "2015015584"}, {"lat": 40.4153096, "dept": "Lafayette Police Department", "address": "4200 Block COMMERCE DR", "date": "10/10/2015 11:00 PM", "lng": -86.8272745, "type": "Theft", "id": "2015015595"}, {"lat": 40.4168841, "dept": "Lafayette Police Department", "address": "100 Block S CREASY LN", "date": "10/10/2015 07:40 PM", "lng": -86.8426808, "type": "Theft", "id": "2015015596"}, {"lat": 40.4377415, "dept": "Lafayette Police Department", "address": "1900 Block UNDERWOOD ST", "date": "10/10/2015 07:27 PM", "lng": -86.87621159999999, "type": "Breaking & Entering", "id": "2015015571"}, {"lat": 40.4153096, "dept": "Lafayette Police Department", "address": "4200 Block COMMERCE DR", "date": "10/10/2015 07:20 PM", "lng": -86.8272745, "type": "Theft", "id": "2015015572"}, {"lat": 40.432346, "dept": "Lafayette Police Department", "address": "1800 Block GREENBUSH ST", "date": "10/10/2015 03:20 PM", "lng": -86.877338, "type": "Breaking & Entering", "id": "2015015563"}, {"lat": 40.4179242, "dept": "Lafayette Police Department", "address": "3600 Block SOUTH ST", "date": "10/10/2015 03:12 PM", "lng": -86.8494516, "type": "Theft", "id": "2015015910"}, {"lat": 40.4019819, "dept": "Lafayette Police Department", "address": "1600 Block POTOMAC AVE", "date": "10/10/2015 02:34 PM", "lng": -86.87913999999999, "type": "Theft", "id": "2015016000"}, {"lat": 30.2184924, "dept": "Lafayette Police Department", "address": "4800 Block STATE RD 26 E", "date": "10/10/2015 08:06 AM", "lng": -92.0355534, "type": "Vehicle Recovery", "id": "453528"}, {"lat": 40.4063063, "dept": "Lafayette Police Department", "address": "900 Block S 9TH ST & CENTRAL ST", "date": "10/10/2015 12:43 AM", "lng": -86.8863324, "type": "Assault", "id": "2015015535"}, {"lat": 40.41116, "dept": "Lafayette Police Department", "address": "600 Block N 18TH ST", "date": "10/10/2015 12:18 AM", "lng": -86.87753599999999, "type": "Assault", "id": "2015015534"}, {"lat": 40.417352, "dept": "Lafayette Police Department", "address": "1 Block S 9TH ST", "date": "10/09/2015 11:40 PM", "lng": -86.88673419999999, "type": "Assault", "id": "2015015533"}, {"lat": 40.4519435, "dept": "West Lafayette Police Dept", "address": "2800 Block NORTHWESTERN AVE", "date": "10/09/2015 08:25 PM", "lng": -86.9262878, "type": "Theft", "id": "2015003883"}, {"lat": 40.4153096, "dept": "Lafayette Police Department", "address": "4200 Block COMMERCE DR", "date": "10/09/2015 06:30 PM", "lng": -86.8272745, "type": "Theft", "id": "2015015505"}, {"lat": 30.220127, "dept": "West Lafayette Police Dept", "address": "300 Block E STATE ST", "date": "10/09/2015 02:38 PM", "lng": -92.036597, "type": "Theft", "id": "2015003877"}, {"lat": 40.433646, "dept": "Lafayette Police Department", "address": "2200 Block GREENBUSH ST", "date": "10/09/2015 02:30 PM", "lng": -86.8702812, "type": "Theft", "id": "2015015491"}, {"lat": 30.2184924, "dept": "Lafayette Police Department", "address": "4900 Block STATE RD 26 E", "date": "10/09/2015 01:49 PM", "lng": -92.0355534, "type": "Theft", "id": "2015015487"}, {"lat": 40.4200309, "dept": "Lafayette Police Department", "address": "1000 Block FERRY ST", "date": "10/09/2015 09:30 AM", "lng": -86.88587249999999, "type": "Theft", "id": "2015015498"}, {"lat": 45.25105850000001, "dept": "Lafayette Police Department", "address": "800 Block N 14TH ST", "date": "10/09/2015 08:00 AM", "lng": -123.1088775, "type": "Theft", "id": "2015015486"}, {"lat": 40.42666639999999, "dept": "West Lafayette Police Dept", "address": "200 Block WIGGINS ST", "date": "10/09/2015 04:00 AM", "lng": -86.9069371, "type": "Breaking & Entering", "id": "2015003934"}, {"lat": 45.2445246, "dept": "Lafayette Police Department", "address": "1000 Block N 6TH ST", "date": "10/09/2015 04:00 AM", "lng": -123.1067317, "type": "Assault", "id": "2015015462"}, {"lat": 45.2450119, "dept": "Lafayette Police Department", "address": "800 Block N 6TH ST", "date": "10/09/2015 02:00 AM", "lng": -123.1088844, "type": "Theft of Vehicle", "id": "2015015543"}, {"lat": 40.433646, "dept": "Lafayette Police Department", "address": "2200 Block GREENBUSH ST", "date": "10/09/2015 12:45 AM", "lng": -86.8702812, "type": "Assault", "id": "2015015527"}, {"lat": 40.4175713, "dept": "Lafayette Police Department", "address": "2300 Block SOUTH ST", "date": "10/08/2015 09:00 PM", "lng": -86.8709128, "type": "Theft", "id": "2015015503"}, {"lat": 40.414591, "dept": "Lafayette Police Department", "address": "1900 Block MAIN ST", "date": "10/08/2015 06:10 PM", "lng": -86.8755127, "type": "Robbery", "id": "2015015432"}, {"lat": 40.414591, "dept": "Lafayette Police Department", "address": "1900 Block MAIN ST", "date": "10/08/2015 06:05 PM", "lng": -86.8755127, "type": "Theft", "id": "2015015434"}, {"lat": 40.4519435, "dept": "West Lafayette Police Dept", "address": "2800 Block NORTHWESTERN AVE", "date": "10/08/2015 03:15 PM", "lng": -86.9262878, "type": "Theft", "id": "2015003864"}, {"lat": 40.4123591, "dept": "Lafayette Police Department", "address": "1700 Block PERDUE ST", "date": "10/08/2015 12:00 PM", "lng": -86.87708789999999, "type": "Theft", "id": "2015015631"}, {"lat": 30.220127, "dept": "West Lafayette Police Dept", "address": "300 Block W STATE ST", "date": "10/08/2015 11:21 AM", "lng": -92.036597, "type": "Theft", "id": "2015003859"}, {"lat": 40.424947, "dept": "Lafayette Police Department", "address": "1200 Block UNION ST", "date": "10/08/2015 10:24 AM", "lng": -86.883985, "type": "Theft", "id": "2015015409"}, {"lat": 40.4186311, "dept": "Lafayette Police Department", "address": "1400 Block MAIN ST", "date": "10/08/2015 12:30 AM", "lng": -86.8808775, "type": "Theft", "id": "2015015392"}, {"lat": 40.4200374, "dept": "Lafayette Police Department", "address": "1100 Block FERRY ST & ERIE ST", "date": "10/08/2015 12:01 AM", "lng": -86.883955, "type": "Theft", "id": "2015015391"}, {"lat": 45.247601, "dept": "Lafayette Police Department", "address": "300 Block N 8TH ST", "date": "10/07/2015 08:00 PM", "lng": -123.1138321, "type": "Assault", "id": "2015015375"}, {"lat": 40.4176116, "dept": "Lafayette Police Department", "address": "1 Block FRONTAGE RD", "date": "10/07/2015 06:45 PM", "lng": -86.8166184, "type": "Theft", "id": "2015015383"}, {"lat": 40.4153096, "dept": "Lafayette Police Department", "address": "4200 Block COMMERCE DR", "date": "10/07/2015 01:45 PM", "lng": -86.8272745, "type": "Theft", "id": "2015015340"}, {"lat": 40.418487, "dept": "Lafayette Police Department", "address": "100 Block N 36TH ST", "date": "10/07/2015 11:20 AM", "lng": -86.850481, "type": "Theft", "id": "2015015329"}, {"lat": 40.4054309, "dept": "Lafayette Police Department", "address": "1100 Block S 12TH ST & WELLS ST", "date": "10/07/2015 09:15 AM", "lng": -86.8831656, "type": "Breaking & Entering", "id": "2015015327"}, {"lat": 40.3944821, "dept": "Lafayette Police Department", "address": "2600 Block HASTINGS CT", "date": "10/07/2015 08:30 AM", "lng": -86.84615900000001, "type": "Breaking & Entering", "id": "2015015364"}, {"lat": 40.404714, "dept": "Lafayette Police Department", "address": "2000 Block STATE ST", "date": "10/07/2015 07:30 AM", "lng": -86.87430549999999, "type": "Theft of Vehicle", "id": "2015015331"}, {"lat": 40.4674912, "dept": "West Lafayette Police Dept", "address": "2600 Block US HWY 52 W", "date": "10/07/2015 12:01 AM", "lng": -86.95723559999999, "type": "Theft", "id": "2015003841"}, {"lat": 40.429839, "dept": "Lafayette Police Department", "address": "2100 Block ELMWOOD AVE", "date": "10/06/2015 08:26 PM", "lng": -86.87439499999999, "type": "Theft", "id": "2015015302"}, {"lat": 45.24419, "dept": "Lafayette Police Department", "address": "300 Block N 3RD ST", "date": "10/06/2015 07:20 PM", "lng": -123.1153127, "type": "Theft", "id": "2015015291"}, {"lat": 40.41346619999999, "dept": "Lafayette Police Department", "address": "1500 Block LARUE ST", "date": "10/06/2015 06:24 PM", "lng": -86.87962329999999, "type": "Theft", "id": "2015015288"}, {"lat": 40.4207431, "dept": "Lafayette Police Department", "address": "500 Block S 26TH ST", "date": "10/06/2015 05:00 PM", "lng": -86.8677872, "type": "Theft", "id": "2015015368"}, {"lat": 40.4065081, "dept": "Lafayette Police Department", "address": "2000 Block CENTRAL ST", "date": "10/06/2015 02:56 PM", "lng": -86.87431959999999, "type": "Robbery", "id": "2015015277"}, {"lat": 40.4257423, "dept": "West Lafayette Police Dept", "address": "300 Block S CHAUNCEY AVE", "date": "10/06/2015 02:00 PM", "lng": -86.9069106, "type": "Theft", "id": "2015003842"}, {"lat": 40.416466, "dept": "Lafayette Police Department", "address": "600 Block ALABAMA ST", "date": "10/06/2015 01:47 PM", "lng": -86.89058399999999, "type": "Assault", "id": "2015015272"}, {"lat": 40.433646, "dept": "Lafayette Police Department", "address": "2200 Block GREENBUSH ST", "date": "10/06/2015 01:00 PM", "lng": -86.8702812, "type": "Theft", "id": "2015015267"}, {"lat": 34.7124875, "dept": "Lafayette Police Department", "address": "500 Block S 1ST ST", "date": "10/06/2015 01:00 PM", "lng": -85.28588529999999, "type": "Breaking & Entering", "id": "2015015305"}, {"lat": 40.422092, "dept": "Lafayette Police Department", "address": "1200 Block BROWN ST", "date": "10/06/2015 01:00 PM", "lng": -86.883856, "type": "Theft of Vehicle", "id": "2015015361"}, {"lat": 40.4293774, "dept": "Lafayette Police Department", "address": "2800 Block FOREST LN", "date": "10/06/2015 12:30 PM", "lng": -86.8630256, "type": "Breaking & Entering", "id": "2015015283"}, {"lat": 40.434236, "dept": "Lafayette Police Department", "address": "1700 Block HEMLOCK RD", "date": "10/06/2015 11:28 AM", "lng": -86.85568599999999, "type": "Theft", "id": "2015015477"}, {"lat": 30.220127, "dept": "West Lafayette Police Dept", "address": "300 Block W STATE ST", "date": "10/06/2015 11:19 AM", "lng": -92.036597, "type": "Theft from Vehicle", "id": "2015003835"}, {"lat": 40.4257185, "dept": "Lafayette Police Department", "address": "900 Block N 11TH ST", "date": "10/06/2015 08:15 AM", "lng": -86.8845875, "type": "Assault", "id": "2015015308"}, {"lat": 40.4227296, "dept": "Lafayette Police Department", "address": "N 12TH ST & CINCINNATI ST", "date": "10/06/2015 01:45 AM", "lng": -86.8840743, "type": "Theft of Vehicle", "id": "2015015257"}, {"lat": 40.394182, "dept": "Lafayette Police Department", "address": "2300 Block OSAGE CT", "date": "10/06/2015 12:00 AM", "lng": -86.872222, "type": "Vehicle Recovery", "id": "375924"}, {"lat": 40.4153096, "dept": "Lafayette Police Department", "address": "4200 Block COMMERCE DR", "date": "10/05/2015 10:10 PM", "lng": -86.8272745, "type": "Theft", "id": "2015015785"}, {"lat": 40.398985, "dept": "Lafayette Police Department", "address": "400 Block SAW MILL RD", "date": "10/05/2015 08:48 PM", "lng": -86.898102, "type": "Assault", "id": "2015015233"}, {"lat": 40.4209292, "dept": "Lafayette Police Department", "address": "1000 Block NORTH ST", "date": "10/05/2015 02:30 PM", "lng": -86.88589040000001, "type": "Theft", "id": "2015015214"}, {"lat": 40.4307609, "dept": "Lafayette Police Department", "address": "2600 Block BONNY LN", "date": "10/05/2015 12:29 PM", "lng": -86.86764, "type": "Assault", "id": "2015015201"}, {"lat": 40.441373, "dept": "Lafayette Police Department", "address": "1900 Block SCHUYLER AVE", "date": "10/05/2015 05:20 AM", "lng": -86.876057, "type": "Theft", "id": "2015015182"}, {"lat": 40.417352, "dept": "Lafayette Police Department", "address": "1 Block S 9TH ST", "date": "10/05/2015 03:48 AM", "lng": -86.88673419999999, "type": "Theft from Vehicle", "id": "2015015181"}, {"lat": 40.4180895, "dept": "Lafayette Police Department", "address": "1 Block SAGAMORE PKY N", "date": "10/05/2015 02:30 AM", "lng": -86.8575352, "type": "Theft", "id": "2015015179"}, {"lat": 40.4338273, "dept": "Lafayette Police Department", "address": "1700 Block N 17TH ST", "date": "10/05/2015 12:00 AM", "lng": -86.87919649999999, "type": "Vehicle Recovery", "id": "432077"}, {"lat": 40.450908, "dept": "West Lafayette Police Dept", "address": "2300 Block YEAGER RD", "date": "10/04/2015 09:46 PM", "lng": -86.92318, "type": "Assault", "id": "2015003811"}, {"lat": 40.41016, "dept": "Lafayette Police Department", "address": "900 Block WABASH AVE", "date": "10/04/2015 09:30 PM", "lng": -86.899671, "type": "Theft of Vehicle", "id": "2015015211"}, {"lat": 40.4153385, "dept": "Lafayette Police Department", "address": "1800 Block MAIN ST", "date": "10/04/2015 08:30 PM", "lng": -86.876336, "type": "Theft of Vehicle", "id": "2015015173"}, {"lat": 40.443679, "dept": "Lafayette Police Department", "address": "2000 Block STILLWELL ST", "date": "10/04/2015 05:37 PM", "lng": -86.875435, "type": "Breaking & Entering", "id": "2015015167"}, {"lat": 40.4338273, "dept": "Lafayette Police Department", "address": "1700 Block N 17TH ST", "date": "10/04/2015 04:40 PM", "lng": -86.87919649999999, "type": "Theft from Vehicle", "id": "2015015424"}, {"lat": 40.4202476, "dept": "Lafayette Police Department", "address": "900 Block FERRY ST", "date": "10/04/2015 04:00 PM", "lng": -86.88629069999999, "type": "Theft", "id": "2015015161"}, {"lat": 40.397072, "dept": "Lafayette Police Department", "address": "2500 Block LEXINGTON CT", "date": "10/04/2015 01:39 PM", "lng": -86.8458027, "type": "Assault", "id": "2015015153"}, {"lat": 40.4519435, "dept": "West Lafayette Police Dept", "address": "2800 Block NORTHWESTERN AVE", "date": "10/04/2015 12:56 PM", "lng": -86.9262878, "type": "Theft", "id": "2015003808"}, {"lat": 40.4029423, "dept": "Lafayette Police Department", "address": "3400 Block MCCARTY LN", "date": "10/04/2015 12:44 AM", "lng": -86.84544939999999, "type": "Assault", "id": "2015015133"}, {"lat": 30.2184924, "dept": "Lafayette Police Department", "address": "4900 Block STATE RD 26 E", "date": "10/03/2015 09:08 PM", "lng": -92.0355534, "type": "Theft", "id": "2015015126"}, {"lat": 40.4367356, "dept": "Lafayette Police Department", "address": "1700 Block CHARLES ST", "date": "10/03/2015 09:00 PM", "lng": -86.8790377, "type": "Theft", "id": "2015015683"}, {"lat": 40.4340813, "dept": "West Lafayette Police Dept", "address": "2100 Block MCCORMICK RD", "date": "10/03/2015 08:29 PM", "lng": -86.9346328, "type": "Breaking & Entering", "id": "2015003801"}, {"lat": 40.4029462, "dept": "Lafayette Police Department", "address": "3500 Block MCCARTY LN", "date": "10/03/2015 06:55 PM", "lng": -86.844959, "type": "Assault", "id": "2015015121"}, {"lat": 40.4191358, "dept": "Lafayette Police Department", "address": "700 Block MAIN ST", "date": "10/03/2015 06:00 PM", "lng": -86.88841699999999, "type": "Theft", "id": "2015015122"}, {"lat": 40.42482529999999, "dept": "West Lafayette Police Dept", "address": "200 Block LITTLETON ST", "date": "10/03/2015 03:25 PM", "lng": -86.9043581, "type": "Theft from Vehicle", "id": "2015003796"}, {"lat": 40.3954819, "dept": "Lafayette Police Department", "address": "2200 Block TEAL RD", "date": "10/03/2015 02:15 PM", "lng": -86.87100930000001, "type": "Theft", "id": "2015015099"}, {"lat": 40.3971054, "dept": "Lafayette Police Department", "address": "2100 Block WABASH AVE", "date": "10/03/2015 12:00 PM", "lng": -86.9112365, "type": "Theft", "id": "2015015200"}, {"lat": 40.442094, "dept": "Lafayette Police Department", "address": "2000 Block SCHUYLER AVE", "date": "10/03/2015 11:55 AM", "lng": -86.874458, "type": "Breaking & Entering", "id": "2015015090"}, {"lat": 40.404089, "dept": "Lafayette Police Department", "address": "1300 Block HOLLOWAY DR", "date": "10/03/2015 09:30 AM", "lng": -86.897728, "type": "Assault", "id": "2015015084"}, {"lat": 40.432346, "dept": "Lafayette Police Department", "address": "1800 Block GREENBUSH ST", "date": "10/02/2015 08:00 PM", "lng": -86.877338, "type": "Theft", "id": "2015015357"}, {"lat": 40.434093, "dept": "Lafayette Police Department", "address": "1800 Block MEHARRY ST", "date": "10/02/2015 06:30 PM", "lng": -86.877372, "type": "Breaking & Entering", "id": "2015015112"}, {"lat": 40.422759, "dept": "West Lafayette Police Dept", "address": "100 Block S CHAUNCEY AVE", "date": "10/02/2015 05:51 PM", "lng": -86.906645, "type": "Assault", "id": "2015003785"}, {"lat": 40.4153096, "dept": "Lafayette Police Department", "address": "4200 Block COMMERCE DR", "date": "10/02/2015 05:40 PM", "lng": -86.8272745, "type": "Theft", "id": "2015015055"}, {"lat": 40.4044867, "dept": "Lafayette Police Department", "address": "1400 Block BROADWAY ST", "date": "10/02/2015 05:20 PM", "lng": -86.8997857, "type": "Assault", "id": "2015015054"}, {"lat": 40.41893750000001, "dept": "Lafayette Police Department", "address": "100 Block COCHISE TRL", "date": "10/02/2015 03:00 PM", "lng": -86.826787, "type": "Theft", "id": "2015015360"}, {"lat": 40.4223501, "dept": "Lafayette Police Department", "address": "3600 Block DRIFTWOOD DR N", "date": "10/02/2015 12:00 PM", "lng": -86.84705310000001, "type": "Theft", "id": "2015015093"}, {"lat": 40.439694, "dept": "Lafayette Police Department", "address": "2300 Block N 20TH ST", "date": "10/02/2015 12:00 PM", "lng": -86.87476, "type": "Theft from Vehicle", "id": "2015015203"}, {"lat": 45.2444006, "dept": "Lafayette Police Department", "address": "500 Block N 4TH ST", "date": "10/02/2015 01:45 AM", "lng": -123.1128025, "type": "Assault", "id": "2015015016"}, {"lat": 40.4191199, "dept": "Lafayette Police Department", "address": "1200 Block MAIN ST", "date": "10/02/2015 12:15 AM", "lng": -86.8838999, "type": "Assault", "id": "2015015012"}]